{
"type": "FeatureCollection",
"crs": { "type": "name", "properties": { "name": "urn:ogc:def:crs:OGC:1.3:CRS84" } },
                                                                                
"features": [
{ "type": "Feature", "properties": { "id": 1.000000, "osm_id": 266167007.000000, "name": "C.E.I.P. Nuestra Señora del Val", "type": "school" }, "geometry": { "type": "Point", "coordinates": [ -3.342454503574999, 40.486531188509495 ] } },
{ "type": "Feature", "properties": { "id": 2.000000, "osm_id": 266167008.000000, "name": "San Gabriel Colegio", "type": "school" }, "geometry": { "type": "Point", "coordinates": [ -3.386915722225694, 40.50756046156252 ] } },
{ "type": "Feature", "properties": { "id": 3.000000, "osm_id": 266166998.000000, "name": "C.E.I.P. Reyes Católicos", "type": "school" }, "geometry": { "type": "Point", "coordinates": [ -3.375269905956401, 40.474300650674849 ] } },
{ "type": "Feature", "properties": { "id": 4.000000, "osm_id": 266167001.000000, "name": "Colegio San Felipe Neri", "type": "school" }, "geometry": { "type": "Point", "coordinates": [ -3.368942323431696, 40.48144362474028 ] } },
{ "type": "Feature", "properties": { "id": 5.000000, "osm_id": 266167004.000000, "name": "Colegio Santa María de la Providencia", "type": "school" }, "geometry": { "type": "Point", "coordinates": [ -3.365612612396006, 40.488370261884825 ] } },
{ "type": "Feature", "properties": { "id": 6.000000, "osm_id": 266166999.000000, "name": "Colegio Sagrado Corazón de Jesús", "type": "school" }, "geometry": { "type": "Point", "coordinates": [ -3.367116577282445, 40.481114970316838 ] } },
{ "type": "Feature", "properties": { "id": 7.000000, "osm_id": 266167005.000000, "name": "C.E.I.P. El Juncal", "type": "school" }, "geometry": { "type": "Point", "coordinates": [ -3.379276874768521, 40.476047439296195 ] } },
{ "type": "Feature", "properties": { "id": 8.000000, "osm_id": 266166995.000000, "name": "C.E.I.P. Cardenal Cisneros", "type": "school" }, "geometry": { "type": "Point", "coordinates": [ -3.369984110177143, 40.481448234787024 ] } },
{ "type": "Feature", "properties": { "id": 9.000000, "osm_id": 266166997.000000, "name": "Colegio Público Daoíz y Velarde", "type": "school" }, "geometry": { "type": "Point", "coordinates": [ -3.36792157526321, 40.487669283322418 ] } },
{ "type": "Feature", "properties": { "id": 10.000000, "osm_id": 266167009.000000, "name": "C.E.I.P. Doctora de Alcalá", "type": "school" }, "geometry": { "type": "Point", "coordinates": [ -3.360363277895544, 40.490744435958703 ] } },
{ "type": "Feature", "properties": { "id": 11.000000, "osm_id": 266167000.000000, "name": "Colegio San Francisco de Asís", "type": "school" }, "geometry": { "type": "Point", "coordinates": [ -3.365706070616397, 40.483811428567776 ] } },
{ "type": "Feature", "properties": { "id": 12.000000, "osm_id": 266167010.000000, "name": "Colegio Minerva", "type": "school" }, "geometry": { "type": "Point", "coordinates": [ -3.35656443173923, 40.485014650768335 ] } },
{ "type": "Feature", "properties": { "id": 13.000000, "osm_id": 266167021.000000, "name": "C.E.I.P. Infanta Catalina", "type": "school" }, "geometry": { "type": "Point", "coordinates": [ -3.374755173282523, 40.473800670150553 ] } },
{ "type": "Feature", "properties": { "id": 14.000000, "osm_id": 266168403.000000, "name": "C.E.I.P. Dulcinea", "type": "school" }, "geometry": { "type": "Point", "coordinates": [ -3.359112949399133, 40.4936275591933 ] } },
{ "type": "Feature", "properties": { "id": 15.000000, "osm_id": 266168404.000000, "name": "C.E.I.P. Beatriz Galindo", "type": "school" }, "geometry": { "type": "Point", "coordinates": [ -3.370856833935562, 40.475117299501051 ] } },
{ "type": "Feature", "properties": { "id": 16.000000, "osm_id": 266168464.000000, "name": "C.E.I.P. Alicia de Larrocha", "type": "school" }, "geometry": { "type": "Point", "coordinates": [ -3.362855133889979, 40.472500636968334 ] } },
{ "type": "Feature", "properties": { "id": 17.000000, "osm_id": 266169856.000000, "name": "Este-5, Alcalá de Henares", "type": "school" }, "geometry": { "type": "Point", "coordinates": [ -3.377323556052943, 40.4915578996617 ] } },
{ "type": "Feature", "properties": { "id": 18.000000, "osm_id": 266169877.000000, "name": "UFIL El Empecinado", "type": "school" }, "geometry": { "type": "Point", "coordinates": [ -3.367246245324537, 40.478186836262211 ] } },
{ "type": "Feature", "properties": { "id": 19.000000, "osm_id": 266169959.000000, "name": "Garabatos", "type": "school" }, "geometry": { "type": "Point", "coordinates": [ -3.377134627955428, 40.49152319858257 ] } },
{ "type": "Feature", "properties": { "id": 20.000000, "osm_id": 266170252.000000, "name": "Fundac.Benefico Social Cristo De La Paz", "type": "school" }, "geometry": { "type": "Point", "coordinates": [ -3.368006567761398, 40.477272873540187 ] } },
{ "type": "Feature", "properties": { "id": 21.000000, "osm_id": 266169052.000000, "name": "Cons.Prof.de Música de Alcalá de Henares", "type": "school" }, "geometry": { "type": "Point", "coordinates": [ -3.370698667422658, 40.490606218375376 ] } },
{ "type": "Feature", "properties": { "id": 22.000000, "osm_id": 266168791.000000, "name": "C.E.I.P. Luis Vives", "type": "school" }, "geometry": { "type": "Point", "coordinates": [ -3.36810840788496, 40.474317665938287 ] } },
{ "type": "Feature", "properties": { "id": 23.000000, "osm_id": 266169453.000000, "name": "E.E.I. Puerta de Madrid", "type": "school" }, "geometry": { "type": "Point", "coordinates": [ -3.375328914554756, 40.479668337648121 ] } },
{ "type": "Feature", "properties": { "id": 24.000000, "osm_id": 266169845.000000, "name": "C.E.I.P. Espartales", "type": "school" }, "geometry": { "type": "Point", "coordinates": [ -3.372165249020952, 40.507625588950162 ] } },
{ "type": "Feature", "properties": { "id": 25.000000, "osm_id": 266169406.000000, "name": "Esc. Mun.de Adultos de Alcalá de Henares", "type": "school" }, "geometry": { "type": "Point", "coordinates": [ -3.365069465070377, 40.479543363471798 ] } },
{ "type": "Feature", "properties": { "id": 26.000000, "osm_id": 266169543.000000, "name": "Leo Leo", "type": "school" }, "geometry": { "type": "Point", "coordinates": [ -3.358868868378721, 40.482715746184937 ] } },
{ "type": "Feature", "properties": { "id": 27.000000, "osm_id": 266170550.000000, "name": "Los Pinos", "type": "school" }, "geometry": { "type": "Point", "coordinates": [ -3.373738867522746, 40.487731728501046 ] } },
{ "type": "Feature", "properties": { "id": 28.000000, "osm_id": 266168465.000000, "name": "C.E.I.P. Manuel Azaña", "type": "school" }, "geometry": { "type": "Point", "coordinates": [ -3.377075619357072, 40.479181684349868 ] } },
{ "type": "Feature", "properties": { "id": 29.000000, "osm_id": 266168981.000000, "name": "Don Juan I", "type": "school" }, "geometry": { "type": "Point", "coordinates": [ -3.369703064963716, 40.485483450612833 ] } },
{ "type": "Feature", "properties": { "id": 30.000000, "osm_id": 266170351.000000, "name": "Reina Cristina Ii", "type": "school" }, "geometry": { "type": "Point", "coordinates": [ -3.354425202411306, 40.508305277478506 ] } },
{ "type": "Feature", "properties": { "id": 31.000000, "osm_id": 266168630.000000, "name": "Antonio Machado", "type": "school" }, "geometry": { "type": "Point", "coordinates": [ -3.38751251373165, 40.476092282478191 ] } },
{ "type": "Feature", "properties": { "id": 32.000000, "osm_id": 266168742.000000, "name": "C.E.I.P. García Lorca", "type": "school" }, "geometry": { "type": "Point", "coordinates": [ -3.372943760187695, 40.488052084840348 ] } },
{ "type": "Feature", "properties": { "id": 33.000000, "osm_id": 266168590.000000, "name": "Centro de Estudios Profesionales (C.E.P.)", "type": "school" }, "geometry": { "type": "Point", "coordinates": [ -3.360011824695476, 40.488981889359394 ] } },
{ "type": "Feature", "properties": { "id": 34.000000, "osm_id": 266169538.000000, "name": "Reina Cristina", "type": "school" }, "geometry": { "type": "Point", "coordinates": [ -3.35984033095653, 40.485676653480958 ] } },
{ "type": "Feature", "properties": { "id": 35.000000, "osm_id": 266168634.000000, "name": "C.P.E.E. Pablo Picasso", "type": "school" }, "geometry": { "type": "Point", "coordinates": [ -3.348586536298682, 40.485977228528782 ] } },
{ "type": "Feature", "properties": { "id": 36.000000, "osm_id": 266168694.000000, "name": "C.E.I.P. Francisco de Quevedo", "type": "school" }, "geometry": { "type": "Point", "coordinates": [ -3.374283942686105, 40.473324661869327 ] } },
{ "type": "Feature", "properties": { "id": 37.000000, "osm_id": 266168467.000000, "name": "C.E.I.P. Iplacea", "type": "school" }, "geometry": { "type": "Point", "coordinates": [ -3.36281557130701, 40.474864249844245 ] } },
{ "type": "Feature", "properties": { "id": 38.000000, "osm_id": 266170789.000000, "name": "La Gran Familia", "type": "school" }, "geometry": { "type": "Point", "coordinates": [ -3.374372874678784, 40.493558324673103 ] } },
{ "type": "Feature", "properties": { "id": 39.000000, "osm_id": 266170954.000000, "name": "C.E.I.P. La Garena", "type": "school" }, "geometry": { "type": "Point", "coordinates": [ -3.387858267237561, 40.483118077537249 ] } },
{ "type": "Feature", "properties": { "id": 40.000000, "osm_id": 287008369.000000, "name": "REPSOL", "type": "fuel" }, "geometry": { "type": "Point", "coordinates": [ -3.393007857090254, 40.476113153417089 ] } },
{ "type": "Feature", "properties": { "id": 41.000000, "osm_id": 287008374.000000, "name": "REPSOL", "type": "fuel" }, "geometry": { "type": "Point", "coordinates": [ -3.374894061418104, 40.480759996717438 ] } },
{ "type": "Feature", "properties": { "id": 42.000000, "osm_id": 266171181.000000, "name": "Reina Cristina Iii", "type": "school" }, "geometry": { "type": "Point", "coordinates": [ -3.354194364797905, 40.509278919351146 ] } },
{ "type": "Feature", "properties": { "id": 43.000000, "osm_id": 266171185.000000, "name": "Piecitos", "type": "school" }, "geometry": { "type": "Point", "coordinates": [ -3.364418442650873, 40.49205855073825 ] } },
{ "type": "Feature", "properties": { "id": 44.000000, "osm_id": 266171320.000000, "name": "La Garena", "type": "school" }, "geometry": { "type": "Point", "coordinates": [ -3.39414645481736, 40.483326535469182 ] } },
{ "type": "Feature", "properties": { "id": 45.000000, "osm_id": 266171562.000000, "name": "Mi Cole", "type": "school" }, "geometry": { "type": "Point", "coordinates": [ -3.362834933503336, 40.491526048429648 ] } },
{ "type": "Feature", "properties": { "id": 46.000000, "osm_id": 266171636.000000, "name": "Colegio Gredos San Diego Alcalá", "type": "school" }, "geometry": { "type": "Point", "coordinates": [ -3.363537839903472, 40.50397015715717 ] } },
{ "type": "Feature", "properties": { "id": 47.000000, "osm_id": 266171699.000000, "name": "Asociados Kym", "type": "school" }, "geometry": { "type": "Point", "coordinates": [ -3.370018308342082, 40.476827375386506 ] } },
{ "type": "Feature", "properties": { "id": 48.000000, "osm_id": 266171785.000000, "name": "C.E.I.P. Mozart", "type": "school" }, "geometry": { "type": "Point", "coordinates": [ -3.37438050221067, 40.49816007333439 ] } },
{ "type": "Feature", "properties": { "id": 49.000000, "osm_id": 266171828.000000, "name": "San Marino", "type": "school" }, "geometry": { "type": "Point", "coordinates": [ -3.389735645910349, 40.484489775991591 ] } },
{ "type": "Feature", "properties": { "id": 50.000000, "osm_id": 266171877.000000, "name": "El Globo", "type": "school" }, "geometry": { "type": "Point", "coordinates": [ -3.370250403240959, 40.469094734432815 ] } },
{ "type": "Feature", "properties": { "id": 51.000000, "osm_id": 266171881.000000, "name": "Villanenetes", "type": "school" }, "geometry": { "type": "Point", "coordinates": [ -3.378345812963999, 40.495004873522788 ] } },
{ "type": "Feature", "properties": { "id": 52.000000, "osm_id": 266171912.000000, "name": "Ascella", "type": "school" }, "geometry": { "type": "Point", "coordinates": [ -3.366175205737022, 40.481125447695831 ] } },
{ "type": "Feature", "properties": { "id": 53.000000, "osm_id": 266172078.000000, "name": "C.A.P. de Alcalá de Henares", "type": "school" }, "geometry": { "type": "Point", "coordinates": [ -3.36678482155483, 40.474577169660535 ] } },
{ "type": "Feature", "properties": { "id": 54.000000, "osm_id": 266172071.000000, "name": "Colorines Henares", "type": "school" }, "geometry": { "type": "Point", "coordinates": [ -3.3515460186712, 40.49026951732489 ] } },
{ "type": "Feature", "properties": { "id": 55.000000, "osm_id": 266172104.000000, "name": "Equipo General de Alcalá de Henares", "type": "school" }, "geometry": { "type": "Point", "coordinates": [ -3.348070965434487, 40.486248047820311 ] } },
{ "type": "Feature", "properties": { "id": 56.000000, "osm_id": 266171946.000000, "name": "Equipo de Atención Temprana de Alcalá de Henares", "type": "school" }, "geometry": { "type": "Point", "coordinates": [ -3.347906680132268, 40.48607932010944 ] } },
{ "type": "Feature", "properties": { "id": 57.000000, "osm_id": 287008375.000000, "name": "CEPSA-ELF", "type": "fuel" }, "geometry": { "type": "Point", "coordinates": [ -3.379222057121751, 40.492360969804764 ] } },
{ "type": "Feature", "properties": { "id": 58.000000, "osm_id": 637776209.000000, "name": "Alcampo", "type": "fuel" }, "geometry": { "type": "Point", "coordinates": [ -3.328937427422233, 40.505129877280261 ] } },
{ "type": "Feature", "properties": { "id": 59.000000, "osm_id": 287008379.000000, "name": "SHELL", "type": "fuel" }, "geometry": { "type": "Point", "coordinates": [ -3.384964834262064, 40.490306732975 ] } },
{ "type": "Feature", "properties": { "id": 60.000000, "osm_id": 287008391.000000, "name": "CARREFOUR", "type": "fuel" }, "geometry": { "type": "Point", "coordinates": [ -3.36945001530691, 40.503787934582164 ] } },
{ "type": "Feature", "properties": { "id": 61.000000, "osm_id": 287008443.000000, "name": "CEPSA", "type": "fuel" }, "geometry": { "type": "Point", "coordinates": [ -3.400639077015569, 40.47597191834862 ] } },
{ "type": "Feature", "properties": { "id": 62.000000, "osm_id": 287008446.000000, "name": "BP ISIDORO", "type": "fuel" }, "geometry": { "type": "Point", "coordinates": [ -3.396944753191832, 40.482239234989521 ] } },
{ "type": "Feature", "properties": { "id": 63.000000, "osm_id": 420433890.000000, "name": "C.E.I.P. Emperador Fernando", "type": "school" }, "geometry": { "type": "Point", "coordinates": [ -3.373467964412157, 40.472328137401036 ] } },
{ "type": "Feature", "properties": { "id": 64.000000, "osm_id": 839469962.000000, "name": "GALP", "type": "fuel" }, "geometry": { "type": "Point", "coordinates": [ -3.352722083505455, 40.507749976393256 ] } },
{ "type": "Feature", "properties": { "id": 65.000000, "osm_id": 839485400.000000, "name": "BP - PUENTE ARCE 4", "type": "fuel" }, "geometry": { "type": "Point", "coordinates": [ -3.408000064382549, 40.472638938370693 ] } },
{ "type": "Feature", "properties": { "id": 66.000000, "osm_id": 839487350.000000, "name": "GALP", "type": "fuel" }, "geometry": { "type": "Point", "coordinates": [ -3.348672702263315, 40.493932660468829 ] } },
{ "type": "Feature", "properties": { "id": 67.000000, "osm_id": 931925616.000000, "name": null, "type": "police" }, "geometry": { "type": "Point", "coordinates": [ -3.366962350264032, 40.48053326623662 ] } },
{ "type": "Feature", "properties": { "id": 68.000000, "osm_id": 839479999.000000, "name": "REPSOL", "type": "fuel" }, "geometry": { "type": "Point", "coordinates": [ -3.358012405512454, 40.487542046032239 ] } },
{ "type": "Feature", "properties": { "id": 69.000000, "osm_id": 839481794.000000, "name": "CEPSA-ELF", "type": "fuel" }, "geometry": { "type": "Point", "coordinates": [ -3.362250044299884, 40.486277971214633 ] } },
{ "type": "Feature", "properties": { "id": 70.000000, "osm_id": 1734554324.000000, "name": "Biblioteca Ensanche", "type": "library" }, "geometry": { "type": "Point", "coordinates": [ -3.369369046122245, 40.501608388299957 ] } },
{ "type": "Feature", "properties": { "id": 71.000000, "osm_id": 2024736728.000000, "name": "Facultad de Documentación", "type": "university" }, "geometry": { "type": "Point", "coordinates": [ -3.360828976435869, 40.479447725956618 ] } },
{ "type": "Feature", "properties": { "id": 72.000000, "osm_id": 2027040214.000000, "name": "Cuatro 43", "type": "school" }, "geometry": { "type": "Point", "coordinates": [ -3.395972033328547, 40.483648484370065 ] } },
{ "type": "Feature", "properties": { "id": 73.000000, "osm_id": 2027166029.000000, "name": "Colegio Convento de mercedarios descalzos de la visitación de nuestra señora", "type": "school" }, "geometry": { "type": "Point", "coordinates": [ -3.367238869249746, 40.478444579784792 ] } },
{ "type": "Feature", "properties": { "id": 74.000000, "osm_id": 2027166025.000000, "name": "Centro de formación conforsa", "type": "school" }, "geometry": { "type": "Point", "coordinates": [ -3.36891223239931, 40.479127872531507 ] } },
{ "type": "Feature", "properties": { "id": 75.000000, "osm_id": 2027166030.000000, "name": "Colegio menor San José de Caracciolos", "type": "university" }, "geometry": { "type": "Point", "coordinates": [ -3.364711557804867, 40.480144597386442 ] } },
{ "type": "Feature", "properties": { "id": 76.000000, "osm_id": 2027166045.000000, "name": "Sala San José de Caraciolos de la Univesidad de Alcalá de Henares", "type": "university" }, "geometry": { "type": "Point", "coordinates": [ -3.365224446460047, 40.480178627913347 ] } },
{ "type": "Feature", "properties": { "id": 77.000000, "osm_id": 2027166040.000000, "name": "Queen Academia de Idiomas", "type": "school" }, "geometry": { "type": "Point", "coordinates": [ -3.367136526211993, 40.481040036102485 ] } },
{ "type": "Feature", "properties": { "id": 78.000000, "osm_id": 2134285286.000000, "name": "Policía Local", "type": "police" }, "geometry": { "type": "Point", "coordinates": [ -3.373333602504288, 40.477053686772187 ] } },
{ "type": "Feature", "properties": { "id": 79.000000, "osm_id": 2094198408.000000, "name": "Puerta de Madrid", "type": "hospital" }, "geometry": { "type": "Point", "coordinates": [ -3.379594632717811, 40.47879502715648 ] } },
{ "type": "Feature", "properties": { "id": 80.000000, "osm_id": 2301402027.000000, "name": "Biblioteca Pública Municipal Eulalio Ferrer. Distrito V", "type": "library" }, "geometry": { "type": "Point", "coordinates": [ -3.351088450576952, 40.483175745031104 ] } },
{ "type": "Feature", "properties": { "id": 81.000000, "osm_id": 2606197834.000000, "name": "Galp", "type": "fuel" }, "geometry": { "type": "Point", "coordinates": [ -3.39371570881326, 40.476804325152777 ] } },
{ "type": "Feature", "properties": { "id": 82.000000, "osm_id": 3005355600.000000, "name": "Sanatorio Vallés", "type": "hospital" }, "geometry": { "type": "Point", "coordinates": [ -3.367335009679152, 40.482994528284472 ] } },
{ "type": "Feature", "properties": { "id": 83.000000, "osm_id": 3839306060.000000, "name": "Biblioteca Universitaria", "type": "library" }, "geometry": { "type": "Point", "coordinates": [ -3.362443666263203, 40.48313584717198 ] } },
{ "type": "Feature", "properties": { "id": 84.000000, "osm_id": 4057321493.000000, "name": "Guardia Civil - Cuartel de Alcalá de Henares.", "type": "police" }, "geometry": { "type": "Point", "coordinates": [ -3.349440736051093, 40.487833317167514 ] } },
{ "type": "Feature", "properties": { "id": 85.000000, "osm_id": 3977660975.000000, "name": "Agentes Forestales - Brigada 1 IIFF.", "type": "police" }, "geometry": { "type": "Point", "coordinates": [ -3.380488227415157, 40.472565177622783 ] } },
{ "type": "Feature", "properties": { "id": 86.000000, "osm_id": 4420510491.000000, "name": "SAD del Ayuntamiento de Alcalá de Henares", "type": "townhall" }, "geometry": { "type": "Point", "coordinates": [ -3.37137500318974, 40.507193920936743 ] } }
]
}
